<airports>
    <airport name="Thigpen ">
        <iata>00M</iata>
        <city>Bay Springs</city>
        <state>MS</state>
        <country>USA</country>
        <latitude>31.95376472</latitude>
        <longitude>-89.23450472</longitude>
    </airport>
    <airport name="Livingston Municipal">
        <iata>00R</iata>
        <city>Livingston</city>
        <state>TX</state>
        <country>USA</country>
        <latitude>30.68586111</latitude>
        <longitude>-95.01792778</longitude>
    </airport>
    <airport name="Meadow Lake">
        <iata>00V</iata>
        <city>Colorado Springs</city>
        <state>CO</state>
        <country>USA</country>
        <latitude>38.94574889</latitude>
        <longitude>-104.5698933</longitude>
    </airport>
    <airport name="Perry-Warsaw">
        <iata>01G</iata>
        <city>Perry</city>
        <state>NY</state>
        <country>USA</country>
        <latitude>42.74134667</latitude>
        <longitude>-78.05208056</longitude>
    </airport>
    <airport name="Hilliard Airpark">
        <iata>01J</iata>
        <city>Hilliard</city>
        <state>FL</state>
        <country>USA</country>
        <latitude>30.6880125</latitude>
        <longitude>-81.90594389</longitude>
    </airport>
    <airport name="Tishomingo County">
        <iata>01M</iata>
        <city>Belmont</city>
        <state>MS</state>
        <country>USA</country>
        <latitude>34.49166667</latitude>
        <longitude>-88.20111111</longitude>
    </airport>
    <airport name="Gragg-Wade ">
        <iata>02A</iata>
        <city>Clanton</city>
        <state>AL</state>
        <country>USA</country>
        <latitude>32.85048667</latitude>
        <longitude>-86.61145333</longitude>
    </airport>
    <airport name="Capitol">
        <iata>02C</iata>
        <city>Brookfield</city>
        <state>WI</state>
        <country>USA</country>
        <latitude>43.08751</latitude>
        <longitude>-88.17786917</longitude>
    </airport>
    <airport name="Columbiana County">
        <iata>02G</iata>
        <city>East Liverpool</city>
        <state>OH</state>
        <country>USA</country>
        <latitude>40.67331278</latitude>
        <longitude>-80.64140639</longitude>
    </airport>
    <airport name="Memphis Memorial">
        <iata>03D</iata>
        <city>Memphis</city>
        <state>MO</state>
        <country>USA</country>
        <latitude>40.44725889</latitude>
        <longitude>-92.22696056</longitude>
    </airport>
    <airport name="Calhoun County">
        <iata>04M</iata>
        <city>Pittsboro</city>
        <state>MS</state>
        <country>USA</country>
        <latitude>33.93011222</latitude>
        <longitude>-89.34285194</longitude>
    </airport>
    <airport name="Hawley Municipal">
        <iata>04Y</iata>
        <city>Hawley</city>
        <state>MN</state>
        <country>USA</country>
        <latitude>46.88384889</latitude>
        <longitude>-96.35089861</longitude>
    </airport>
    <airport name="Griffith-Merrillville ">
        <iata>05C</iata>
        <city>Griffith</city>
        <state>IN</state>
        <country>USA</country>
        <latitude>41.51961917</latitude>
        <longitude>-87.40109333</longitude>
    </airport>
    <airport name="Gatesville - City/County">
        <iata>05F</iata>
        <city>Gatesville</city>
        <state>TX</state>
        <country>USA</country>
        <latitude>31.42127556</latitude>
        <longitude>-97.79696778</longitude>
    </airport>
    <airport name="Eureka">
        <iata>05U</iata>
        <city>Eureka</city>
        <state>NV</state>
        <country>USA</country>
        <latitude>39.60416667</latitude>
        <longitude>-116.0050597</longitude>
    </airport>
    <airport name="Moton  Municipal">
        <iata>06A</iata>
        <city>Tuskegee</city>
        <state>AL</state>
        <country>USA</country>
        <latitude>32.46047167</latitude>
        <longitude>-85.68003611</longitude>
    </airport>
    <airport name="Schaumburg">
        <iata>06C</iata>
        <city>Chicago/Schaumburg</city>
        <state>IL</state>
        <country>USA</country>
        <latitude>41.98934083</latitude>
        <longitude>-88.10124278</longitude>
    </airport>
    <airport name="Rolla Municipal">
        <iata>06D</iata>
        <city>Rolla</city>
        <state>ND</state>
        <country>USA</country>
        <latitude>48.88434111</latitude>
        <longitude>-99.62087694</longitude>
    </airport>
    <airport name="Eupora Municipal">
        <iata>06M</iata>
        <city>Eupora</city>
        <state>MS</state>
        <country>USA</country>
        <latitude>33.53456583</latitude>
        <longitude>-89.31256917</longitude>
    </airport>
    <airport name="Randall ">
        <iata>06N</iata>
        <city>Middletown</city>
        <state>NY</state>
        <country>USA</country>
        <latitude>41.43156583</latitude>
        <longitude>-74.39191722</longitude>
    </airport>
    <airport name="Jackpot/Hayden ">
        <iata>06U</iata>
        <city>Jackpot</city>
        <state>NV</state>
        <country>USA</country>
        <latitude>41.97602222</latitude>
        <longitude>-114.6580911</longitude>
    </airport>
    <airport name="Dekalb County">
        <iata>07C</iata>
        <city>Auburn</city>
        <state>IN</state>
        <country>USA</country>
        <latitude>41.30716667</latitude>
        <longitude>-85.06433333</longitude>
    </airport>
    <airport name="Gladewater Municipal">
        <iata>07F</iata>
        <city>Gladewater</city>
        <state>TX</state>
        <country>USA</country>
        <latitude>32.52883861</latitude>
        <longitude>-94.97174556</longitude>
    </airport>
    <airport name="Fitch H Beach">
        <iata>07G</iata>
        <city>Charlotte</city>
        <state>MI</state>
        <country>USA</country>
        <latitude>42.57450861</latitude>
        <longitude>-84.81143139</longitude>
    </airport>
    <airport name="Central City Municipal">
        <iata>07K</iata>
        <city>Central City</city>
        <state>NE</state>
        <country>USA</country>
        <latitude>41.11668056</latitude>
        <longitude>-98.05033639</longitude>
    </airport>
    <airport name="Wetumpka Municipal">
        <iata>08A</iata>
        <city>Wetumpka</city>
        <state>AL</state>
        <country>USA</country>
        <latitude>32.52943944</latitude>
        <longitude>-86.32822139</longitude>
    </airport>
    <airport name="Stanley Municipal">
        <iata>08D</iata>
        <city>Stanley</city>
        <state>ND</state>
        <country>USA</country>
        <latitude>48.30079861</latitude>
        <longitude>-102.4063514</longitude>
    </airport>
    <airport name="Harvard State">
        <iata>08K</iata>
        <city>Harvard</city>
        <state>NE</state>
        <country>USA</country>
        <latitude>40.65138528</latitude>
        <longitude>-98.07978667</longitude>
    </airport>
    <airport name="Carthage-Leake County">
        <iata>08M</iata>
        <city>Carthage</city>
        <state>MS</state>
        <country>USA</country>
        <latitude>32.76124611</latitude>
        <longitude>-89.53007139</longitude>
    </airport>
    <airport name="Butler-Choctaw County">
        <iata>09A</iata>
        <city>Butler</city>
        <state>AL</state>
        <country>USA</country>
        <latitude>32.11931306</latitude>
        <longitude>-88.1274625</longitude>
    </airport>
    <airport name="Jekyll Island">
        <iata>09J</iata>
        <city>Jekyll Island</city>
        <state>GA</state>
        <country>USA</country>
        <latitude>31.07447222</latitude>
        <longitude>-81.42777778</longitude>
    </airport>
    <airport name="Sargent Municipal">
        <iata>09K</iata>
        <city>Sargent</city>
        <state>NE</state>
        <country>USA</country>
        <latitude>41.63695083</latitude>
        <longitude>-99.34038139</longitude>
    </airport>
    <airport name="Charleston Municipal">
        <iata>09M</iata>
        <city>Charleston</city>
        <state>MS</state>
        <country>USA</country>
        <latitude>33.99150222</latitude>
        <longitude>-90.078145</longitude>
    </airport>
    <airport name="South Capitol Street">
        <iata>09W</iata>
        <city>Washington</city>
        <state>DC</state>
        <country>USA</country>
        <latitude>38.86872333</latitude>
        <longitude>-77.00747583</longitude>
    </airport>
    <airport name="Smithville Municipal">
        <iata>0A3</iata>
        <city>Smithville</city>
        <state>TN</state>
        <country>USA</country>
        <latitude>35.98531194</latitude>
        <longitude>-85.80931806</longitude>
    </airport>
    <airport name="Bibb County">
        <iata>0A8</iata>
        <city>Centreville</city>
        <state>AL</state>
        <country>USA</country>
        <latitude>32.93679056</latitude>
        <longitude>-87.08888306</longitude>
    </airport>
    <airport name="Elizabethton Municipal">
        <iata>0A9</iata>
        <city>Elizabethton</city>
        <state>TN</state>
        <country>USA</country>
        <latitude>36.37094306</latitude>
        <longitude>-82.17374111</longitude>
    </airport>
    <airport name="Pilot Station">
        <iata>0AK</iata>
        <city>Pilot Station</city>
        <state>AK</state>
        <country>USA</country>
        <latitude>61.93396417</latitude>
        <longitude>-162.8929358</longitude>
    </airport>
    <airport name="Col. Dyke ">
        <iata>0B1</iata>
        <city>Bethel</city>
        <state>ME</state>
        <country>USA</country>
        <latitude>44.42506444</latitude>
        <longitude>-70.80784778</longitude>
    </airport>
    <airport name="Hartington Municipal">
        <iata>0B4</iata>
        <city>Hartington</city>
        <state>NE</state>
        <country>USA</country>
        <latitude>42.60355556</latitude>
        <longitude>-97.25263889</longitude>
    </airport>
    <airport name="Turners Falls">
        <iata>0B5</iata>
        <city>Montague</city>
        <state>MA</state>
        <country>USA</country>
        <latitude>42.59136361</latitude>
        <longitude>-72.52275472</longitude>
    </airport>
    <airport name="Warren-Sugar Bush">
        <iata>0B7</iata>
        <city>Warren</city>
        <state>VT</state>
        <country>USA</country>
        <latitude>44.11672722</latitude>
        <longitude>-72.82705806</longitude>
    </airport>
    <airport name="Elizabeth ">
        <iata>0B8</iata>
        <city>Fishers Island</city>
        <state>NY</state>
        <country>USA</country>
        <latitude>41.25130806</latitude>
        <longitude>-72.03161139</longitude>
    </airport>
    <airport name="Dacy">
        <iata>0C0</iata>
        <city>Chicago/Harvard</city>
        <state>IL</state>
        <country>USA</country>
        <latitude>42.40418556</latitude>
        <longitude>-88.63343222</longitude>
    </airport>
    <airport name="Pender Municipal">
        <iata>0C4</iata>
        <city>Pender</city>
        <state>NE</state>
        <country>USA</country>
        <latitude>42.11388722</latitude>
        <longitude>-96.72892556</longitude>
    </airport>
    <airport name="South Haven Municipal">
        <iata>0D1</iata>
        <city>South Haven</city>
        <state>MI</state>
        <country>USA</country>
        <latitude>42.35083333</latitude>
        <longitude>-86.25613889</longitude>
    </airport>
    <airport name="Gettysburg Municipal">
        <iata>0D8</iata>
        <city>Gettysburg</city>
        <state>SD</state>
        <country>USA</country>
        <latitude>44.98730556</latitude>
        <longitude>-99.9535</longitude>
    </airport>
    <airport name="Moriarty">
        <iata>0E0</iata>
        <city>Moriarty</city>
        <state>NM</state>
        <country>USA</country>
        <latitude>34.98560639</latitude>
        <longitude>-106.0094661</longitude>
    </airport>
    <airport name="Crownpoint">
        <iata>0E8</iata>
        <city>Crownpoint</city>
        <state>NM</state>
        <country>USA</country>
        <latitude>35.71765889</latitude>
        <longitude>-108.2015961</longitude>
    </airport>
    <airport name="Bowie Municipal">
        <iata>0F2</iata>
        <city>Bowie</city>
        <state>TX</state>
        <country>USA</country>
        <latitude>33.60166667</latitude>
        <longitude>-97.77556</longitude>
    </airport>
    <airport name="Loup City Municipal">
        <iata>0F4</iata>
        <city>Loup City</city>
        <state>NE</state>
        <country>USA</country>
        <latitude>41.29028694</latitude>
        <longitude>-98.99064278</longitude>
    </airport>
    <airport name="Fountainhead Lodge Airpark">
        <iata>0F7</iata>
        <city>Eufaula</city>
        <state>OK</state>
        <country>USA</country>
        <latitude>35.38898833</latitude>
        <longitude>-95.60165111</longitude>
    </airport>
    <airport name="William R Pogue Municipal">
        <iata>0F8</iata>
        <city>Sand Springs</city>
        <state>OK</state>
        <country>USA</country>
        <latitude>36.17528</latitude>
        <longitude>-96.15181028</longitude>
    </airport>
    <airport name="Tishomingo Airpark">
        <iata>0F9</iata>
        <city>Tishomingo</city>
        <state>OK</state>
        <country>USA</country>
        <latitude>34.19592833</latitude>
        <longitude>-96.67555694</longitude>
    </airport>
    <airport name="North Buffalo Suburban">
        <iata>0G0</iata>
        <city>Lockport</city>
        <state>NY</state>
        <country>USA</country>
        <latitude>43.10318389</latitude>
        <longitude>-78.70334583</longitude>
    </airport>
    <airport name="Tecumseh Municipal">
        <iata>0G3</iata>
        <city>Tecumseh</city>
        <state>NE</state>
        <country>USA</country>
        <latitude>40.39944417</latitude>
        <longitude>-96.17139694</longitude>
    </airport>
    <airport name="Williams County">
        <iata>0G6</iata>
        <city>Bryan</city>
        <state>OH</state>
        <country>USA</country>
        <latitude>41.46736111</latitude>
        <longitude>-84.50655556</longitude>
    </airport>
    <airport name="Finger Lakes Regional">
        <iata>0G7</iata>
        <city>Seneca Falls</city>
        <state>NY</state>
        <country>USA</country>
        <latitude>42.88062278</latitude>
        <longitude>-76.78162028</longitude>
    </airport>
    <airport name="Trego Wakeeney ">
        <iata>0H1</iata>
        <city>Wakeeney</city>
        <state>KS</state>
        <country>USA</country>
        <latitude>39.0044525</latitude>
        <longitude>-99.89289917</longitude>
    </airport>
    <airport name="Cynthiana-Harrison County">
        <iata>0I8</iata>
        <city>Cynthiana</city>
        <state>KY</state>
        <country>USA</country>
        <latitude>38.36674167</latitude>
        <longitude>-84.28410056</longitude>
    </airport>
    <airport name="Abbeville Municipal">
        <iata>0J0</iata>
        <city>Abbeville</city>
        <state>AL</state>
        <country>USA</country>
        <latitude>31.60016778</latitude>
        <longitude>-85.23882222</longitude>
    </airport>
    <airport name="Florala Municipal">
        <iata>0J4</iata>
        <city>Florala</city>
        <state>AL</state>
        <country>USA</country>
        <latitude>31.04247361</latitude>
        <longitude>-86.31156111</longitude>
    </airport>
    <airport name="Headland Municipal">
        <iata>0J6</iata>
        <city>Headland</city>
        <state>AL</state>
        <country>USA</country>
        <latitude>31.364895</latitude>
        <longitude>-85.30965556</longitude>
    </airport>
    <airport name="Humboldt Municipal">
        <iata>0K7</iata>
        <city>Humboldt</city>
        <state>IA</state>
        <country>USA</country>
        <latitude>42.7360825</latitude>
        <longitude>-94.24524167</longitude>
    </airport>
    <airport name="Goldfield">
        <iata>0L5</iata>
        <city>Goldfield</city>
        <state>NV</state>
        <country>USA</country>
        <latitude>37.71798833</latitude>
        <longitude>-117.2384119</longitude>
    </airport>
    <airport name="Jean">
        <iata>0L7</iata>
        <city>Jean</city>
        <state>NV</state>
        <country>USA</country>
        <latitude>35.76827222</latitude>
        <longitude>-115.3296378</longitude>
    </airport>
    <airport name="Echo Bay">
        <iata>0L9</iata>
        <city>Overton</city>
        <state>NV</state>
        <country>USA</country>
        <latitude>36.31108972</latitude>
        <longitude>-114.4638672</longitude>
    </airport>
    <airport name="Dumas Municipal">
        <iata>0M0</iata>
        <city>Dumas</city>
        <state>AR</state>
        <country>USA</country>
        <latitude>33.8845475</latitude>
        <longitude>-91.53429111</longitude>
    </airport>
    <airport name="Scott ">
        <iata>0M1</iata>
        <city>Parsons</city>
        <state>TN</state>
        <country>USA</country>
        <latitude>35.63778</latitude>
        <longitude>-88.127995</longitude>
    </airport>
    <airport name="Benton County">
        <iata>0M4</iata>
        <city>Camden</city>
        <state>TN</state>
        <country>USA</country>
        <latitude>36.01122694</latitude>
        <longitude>-88.12328833</longitude>
    </airport>
    <airport name="Humphreys County">
        <iata>0M5</iata>
        <city>Waverly</city>
        <state>TN</state>
        <country>USA</country>
        <latitude>36.11659972</latitude>
        <longitude>-87.73815889</longitude>
    </airport>
    <airport name="Panola County">
        <iata>0M6</iata>
        <city>Batesville</city>
        <state>MS</state>
        <country>USA</country>
        <latitude>34.36677444</latitude>
        <longitude>-89.90008917</longitude>
    </airport>
    <airport name="Byerley">
        <iata>0M8</iata>
        <city>Lake Providence</city>
        <state>LA</state>
        <country>USA</country>
        <latitude>32.82587917</latitude>
        <longitude>-91.187665</longitude>
    </airport>
    <airport name="Calaveras Co-Maury Rasmussen ">
        <iata>0O3</iata>
        <city>San Andreas</city>
        <state>CA</state>
        <country>USA</country>
        <latitude>38.14611639</latitude>
        <longitude>-120.6481733</longitude>
    </airport>
    <airport name="Corning Municipal">
        <iata>0O4</iata>
        <city>Corning</city>
        <state>CA</state>
        <country>USA</country>
        <latitude>39.94376806</latitude>
        <longitude>-122.1713781</longitude>
    </airport>
    <airport name="University">
        <iata>0O5</iata>
        <city>Davis</city>
        <state>CA</state>
        <country>USA</country>
        <latitude>38.53146222</latitude>
        <longitude>-121.7864906</longitude>
    </airport>
    <airport name="Shelter Cove">
        <iata>0Q5</iata>
        <city>Shelter Cove</city>
        <state>CA</state>
        <country>USA</country>
        <latitude>40.02764333</latitude>
        <longitude>-124.0733639</longitude>
    </airport>
    <airport name="Shingletown">
        <iata>0Q6</iata>
        <city>Shingletown</city>
        <state>CA</state>
        <country>USA</country>
        <latitude>40.52210111</latitude>
        <longitude>-121.8177683</longitude>
    </airport>
    <airport name="Columbia-Marion County">
        <iata>0R0</iata>
        <city>Columbia</city>
        <state>MS</state>
        <country>USA</country>
        <latitude>31.29700806</latitude>
        <longitude>-89.81282944</longitude>
    </airport>
    <airport name="Atmore Municipal">
        <iata>0R1</iata>
        <city>Atmore</city>
        <state>AL</state>
        <country>USA</country>
        <latitude>31.01621528</latitude>
        <longitude>-87.44675972</longitude>
    </airport>
    <airport name="Abbeville Chris Crusta Memorial">
        <iata>0R3</iata>
        <city>Abbeville</city>
        <state>LA</state>
        <country>USA</country>
        <latitude>29.97576083</latitude>
        <longitude>-92.08415167</longitude>
    </airport>
    <airport name="Concordia Parish">
        <iata>0R4</iata>
        <city>Vidalia</city>
        <state>LA</state>
        <country>USA</country>
        <latitude>31.56683278</latitude>
        <longitude>-91.50011889</longitude>
    </airport>
    <airport name="David G Joyce">
        <iata>0R5</iata>
        <city>Winnfield</city>
        <state>LA</state>
        <country>USA</country>
        <latitude>31.96366222</latitude>
        <longitude>-92.66026056</longitude>
    </airport>
    <airport name="Red River">
        <iata>0R7</iata>
        <city>Coushatta</city>
        <state>LA</state>
        <country>USA</country>
        <latitude>31.99071694</latitude>
        <longitude>-93.30739306</longitude>
    </airport>
    <airport name="Dorothy Scott">
        <iata>0S7</iata>
        <city>Oroville</city>
        <state>WA</state>
        <country>USA</country>
        <latitude>48.958965</latitude>
        <longitude>-119.4119622</longitude>
    </airport>
    <airport name="Jefferson County International">
        <iata>0S9</iata>
        <city>Port Townsend</city>
        <state>WA</state>
        <country>USA</country>
        <latitude>48.04981361</latitude>
        <longitude>-122.8012792</longitude>
    </airport>
    <airport name="Harriet Alexander ">
        <iata>0V2</iata>
        <city>Salida</city>
        <state>CO</state>
        <country>USA</country>
        <latitude>38.53916389</latitude>
        <longitude>-106.0458483</longitude>
    </airport>
    <airport name="Pioneer Village ">
        <iata>0V3</iata>
        <city>Minden</city>
        <state>NE</state>
        <country>USA</country>
        <latitude>40.5149125</latitude>
        <longitude>-98.94565083</longitude>
    </airport>
    <airport name="Brookneal/Campbell County">
        <iata>0V4</iata>
        <city>Brookneal</city>
        <state>VA</state>
        <country>USA</country>
        <latitude>37.14172222</latitude>
        <longitude>-79.01638889</longitude>
    </airport>
    <airport name="Mission Sioux">
        <iata>0V6</iata>
        <city>Mission</city>
        <state>SD</state>
        <country>USA</country>
        <latitude>43.30694778</latitude>
        <longitude>-100.6281936</longitude>
    </airport>
    <airport name="Kayenta">
        <iata>0V7</iata>
        <city>Kayenta</city>
        <state>AZ</state>
        <country>USA</country>
        <latitude>36.70972139</latitude>
        <longitude>-110.2367978</longitude>
    </airport>
    <airport name="Galt">
        <iata>10C</iata>
        <city>Chicago/Greenwood/Wonderlake</city>
        <state>IL</state>
        <country>USA</country>
        <latitude>42.40266472</latitude>
        <longitude>-88.37588917</longitude>
    </airport>
    <airport name="Winsted Municipal">
        <iata>10D</iata>
        <city>Winsted</city>
        <state>MN</state>
        <country>USA</country>
        <latitude>44.94996278</latitude>
        <longitude>-94.0669175</longitude>
    </airport>
    <airport name="Holmes County">
        <iata>10G</iata>
        <city>Millersburg</city>
        <state>OH</state>
        <country>USA</country>
        <latitude>40.53716667</latitude>
        <longitude>-81.95436111</longitude>
    </airport>
    <airport name="Wallkill">
        <iata>10N</iata>
        <city>Wallkill</city>
        <state>NY</state>
        <country>USA</country>
        <latitude>41.62787111</latitude>
        <longitude>-74.13375583</longitude>
    </airport>
    <airport name="Owyhee">
        <iata>10U</iata>
        <city>Owyhee</city>
        <state>NV</state>
        <country>USA</country>
        <latitude>41.95323306</latitude>
        <longitude>-116.1876014</longitude>
    </airport>
    <airport name="Clayton Municipal">
        <iata>11A</iata>
        <city>Clayton</city>
        <state>AL</state>
        <country>USA</country>
        <latitude>31.88329917</latitude>
        <longitude>-85.48491361</longitude>
    </airport>
    <airport name="Clarion Cty">
        <iata>11D</iata>
        <city>Clarion</city>
        <state>PA</state>
        <country>USA</country>
        <latitude>41.22581222</latitude>
        <longitude>-79.44098972</longitude>
    </airport>
    <airport name="Schaumburg Heliport">
        <iata>11IS</iata>
        <city>Chicago/Schaumburg</city>
        <state>IL</state>
        <country>USA</country>
        <latitude>42.04808278</latitude>
        <longitude>-88.05257194</longitude>
    </airport>
    <airport name="Early County">
        <iata>11J</iata>
        <city>Blakely</city>
        <state>GA</state>
        <country>USA</country>
        <latitude>31.39698611</latitude>
        <longitude>-84.89525694</longitude>
    </airport>
    <airport name="Brenham Municipal">
        <iata>11R</iata>
        <city>Brenham</city>
        <state>TX</state>
        <country>USA</country>
        <latitude>30.219</latitude>
        <longitude>-96.37427778</longitude>
    </airport>
    <airport name="Rochelle Municipal">
        <iata>12C</iata>
        <city>Rochelle</city>
        <state>IL</state>
        <country>USA</country>
        <latitude>41.89300139</latitude>
        <longitude>-89.07829</longitude>
    </airport>
    <airport name="Tower Municipal">
        <iata>12D</iata>
        <city>Tower</city>
        <state>MN</state>
        <country>USA</country>
        <latitude>47.81833333</latitude>
        <longitude>-92.29166667</longitude>
    </airport>
    <airport name="Brewton Municipal">
        <iata>12J</iata>
        <city>Brewton</city>
        <state>AL</state>
        <country>USA</country>
        <latitude>31.05126306</latitude>
        <longitude>-87.06796833</longitude>
    </airport>
    <airport name="Superior Municipal">
        <iata>12K</iata>
        <city>Superior</city>
        <state>NE</state>
        <country>USA</country>
        <latitude>40.04636111</latitude>
        <longitude>-98.06011111</longitude>
    </airport>
    <airport name="Le Sueur Municipal">
        <iata>12Y</iata>
        <city>Le Sueur</city>
        <state>MN</state>
        <country>USA</country>
        <latitude>44.43746472</latitude>
        <longitude>-93.91274083</longitude>
    </airport>
    <airport name="Lakeview">
        <iata>13C</iata>
        <city>Lakeview</city>
        <state>MI</state>
        <country>USA</country>
        <latitude>43.45213722</latitude>
        <longitude>-85.26480333</longitude>
    </airport>
    <airport name="Eureka Municipal">
        <iata>13K</iata>
        <city>Eureka</city>
        <state>KS</state>
        <country>USA</country>
        <latitude>37.8515825</latitude>
        <longitude>-96.29169806</longitude>
    </airport>
    <airport name="Trinca">
        <iata>13N</iata>
        <city>Andover</city>
        <state>NJ</state>
        <country>USA</country>
        <latitude>40.96676444</latitude>
        <longitude>-74.78016556</longitude>
    </airport>
    <airport name="Carl Folsom">
        <iata>14J</iata>
        <city>Elba</city>
        <state>AL</state>
        <country>USA</country>
        <latitude>31.40988861</latitude>
        <longitude>-86.08883583</longitude>
    </airport>
    <airport name="Hollandale Municipal">
        <iata>14M</iata>
        <city>Hollandale</city>
        <state>MS</state>
        <country>USA</country>
        <latitude>33.18262167</latitude>
        <longitude>-90.83065444</longitude>
    </airport>
    <airport name="Todd Field ">
        <iata>14Y</iata>
        <city>Long Prairie</city>
        <state>MN</state>
        <country>USA</country>
        <latitude>45.89857556</latitude>
        <longitude>-94.87391</longitude>
    </airport>
    <airport name="Haskell Municipal">
        <iata>15F</iata>
        <city>Haskell</city>
        <state>TX</state>
        <country>USA</country>
        <latitude>33.19155556</latitude>
        <longitude>-99.71793056</longitude>
    </airport>
    <airport name="Cook County">
        <iata>15J</iata>
        <city>Adel</city>
        <state>GA</state>
        <country>USA</country>
        <latitude>31.13780556</latitude>
        <longitude>-83.45308333</longitude>
    </airport>
    <airport name="Luka ">
        <iata>15M</iata>
        <city>Luka</city>
        <state>MS</state>
        <country>USA</country>
        <latitude>34.7723125</latitude>
        <longitude>-88.16587444</longitude>
    </airport>
    <airport name="McCarthy 2">
        <iata>15Z</iata>
        <city>McCarthy</city>
        <state>AK</state>
        <country>USA</country>
        <latitude>61.43706083</latitude>
        <longitude>-142.9037372</longitude>
    </airport>
    <airport name="Nunapitchuk">
        <iata>16A</iata>
        <city>Nunapitchuk</city>
        <state>AK</state>
        <country>USA</country>
        <latitude>60.90582833</latitude>
        <longitude>-162.4391158</longitude>
    </airport>
    <airport name="Seneca County">
        <iata>16G</iata>
        <city>Tiffin</city>
        <state>OH</state>
        <country>USA</country>
        <latitude>41.09405556</latitude>
        <longitude>-83.2125</longitude>
    </airport>
    <airport name="Dawson Municipal">
        <iata>16J</iata>
        <city>Dawson</city>
        <state>GA</state>
        <country>USA</country>
        <latitude>31.74328472</latitude>
        <longitude>-84.419285</longitude>
    </airport>
    <airport name="Myrtle Creek Municipal">
        <iata>16S</iata>
        <city>Myrtle Creek</city>
        <state>OR</state>
        <country>USA</country>
        <latitude>42.99845056</latitude>
        <longitude>-123.3095092</longitude>
    </airport>
    <airport name="Port Bucyrus-Crawford County">
        <iata>17G</iata>
        <city>Bucyrus</city>
        <state>OH</state>
        <country>USA</country>
        <latitude>40.78141667</latitude>
        <longitude>-82.97469444</longitude>
    </airport>
    <airport name="Donalsonville Municipal">
        <iata>17J</iata>
        <city>Donalsonville</city>
        <state>GA</state>
        <country>USA</country>
        <latitude>31.00694444</latitude>
        <longitude>-84.87761111</longitude>
    </airport>
    <airport name="Boise City">
        <iata>17K</iata>
        <city>Boise City</city>
        <state>OK</state>
        <country>USA</country>
        <latitude>36.77430028</latitude>
        <longitude>-102.5104364</longitude>
    </airport>
    <airport name="Magee Municipal">
        <iata>17M</iata>
        <city>Magee</city>
        <state>MS</state>
        <country>USA</country>
        <latitude>31.86127139</latitude>
        <longitude>-89.80285361</longitude>
    </airport>
    <airport name="Cross Keys">
        <iata>17N</iata>
        <city>Cross Keys</city>
        <state>NJ</state>
        <country>USA</country>
        <latitude>39.70547583</latitude>
        <longitude>-75.03300306</longitude>
    </airport>
    <airport name="Manokotak">
        <iata>17Z</iata>
        <city>Manokotak</city>
        <state>AK</state>
        <country>USA</country>
        <latitude>58.98896583</latitude>
        <longitude>-159.0499739</longitude>
    </airport>
    <airport name="Franklin County">
        <iata>18A</iata>
        <city>Canon</city>
        <state>GA</state>
        <country>USA</country>
        <latitude>34.34010472</latitude>
        <longitude>-83.13348333</longitude>
    </airport>
    <airport name="McCreary County ">
        <iata>18I</iata>
        <city>Pine Knot</city>
        <state>KY</state>
        <country>USA</country>
        <latitude>36.69591306</latitude>
        <longitude>-84.39160389</longitude>
    </airport>
    <airport name="Jackson County">
        <iata>19A</iata>
        <city>Jefferson</city>
        <state>GA</state>
        <country>USA</country>
        <latitude>34.17402472</latitude>
        <longitude>-83.56066528</longitude>
    </airport>
    <airport name="C A Moore">
        <iata>19M</iata>
        <city>Lexington</city>
        <state>MS</state>
        <country>USA</country>
        <latitude>33.12546111</latitude>
        <longitude>-90.02555694</longitude>
    </airport>
    <airport name="Camden">
        <iata>19N</iata>
        <city>Berlin</city>
        <state>NJ</state>
        <country>USA</country>
        <latitude>39.77842056</latitude>
        <longitude>-74.94780389</longitude>
    </airport>
    <airport name="Port Protection SPB">
        <iata>19P</iata>
        <city>Port Protection</city>
        <state>AK</state>
        <country>USA</country>
        <latitude>56.32880417</latitude>
        <longitude>-133.6100844</longitude>
    </airport>
    <airport name="Martin Campbell ">
        <iata>1A3</iata>
        <city>Copperhill</city>
        <state>TN</state>
        <country>USA</country>
        <latitude>35.01619111</latitude>
        <longitude>-84.34631083</longitude>
    </airport>
    <airport name="Macon County">
        <iata>1A5</iata>
        <city>Franklin</city>
        <state>NC</state>
        <country>USA</country>
        <latitude>35.222595</latitude>
        <longitude>-83.41904389</longitude>
    </airport>
    <airport name="Middlesboro-Bell County">
        <iata>1A6</iata>
        <city>Middlesboro</city>
        <state>KY</state>
        <country>USA</country>
        <latitude>36.6106375</latitude>
        <longitude>-83.73741611</longitude>
    </airport>
    <airport name="Jackson County">
        <iata>1A7</iata>
        <city>Gainesboro</city>
        <state>TN</state>
        <country>USA</country>
        <latitude>36.39728139</latitude>
        <longitude>-85.64164278</longitude>
    </airport>
    <airport name="Autauga County">
        <iata>1A9</iata>
        <city>Prattville</city>
        <state>AL</state>
        <country>USA</country>
        <latitude>32.438775</latitude>
        <longitude>-86.51044778</longitude>
    </airport>
    <airport name="Dexter Regional">
        <iata>1B0</iata>
        <city>Dexter</city>
        <state>ME</state>
        <country>USA</country>
        <latitude>45.00839444</latitude>
        <longitude>-69.23976722</longitude>
    </airport>
    <airport name="Columbia Cty">
        <iata>1B1</iata>
        <city>Hudson</city>
        <state>NY</state>
        <country>USA</country>
        <latitude>42.29130028</latitude>
        <longitude>-73.71031944</longitude>
    </airport>
    <airport name="Fair Haven">
        <iata>1B3</iata>
        <city>Fair Haven</city>
        <state>VT</state>
        <country>USA</country>
        <latitude>43.61534389</latitude>
        <longitude>-73.27455556</longitude>
    </airport>
    <airport name="Mansfield Municipal">
        <iata>1B9</iata>
        <city>Mansfield</city>
        <state>MA</state>
        <country>USA</country>
        <latitude>42.00013306</latitude>
        <longitude>-71.19677139</longitude>
    </airport>
    <airport name="Clow">
        <iata>1C5</iata>
        <city>Chicago/Plainfield</city>
        <state>IL</state>
        <country>USA</country>
        <latitude>41.69597444</latitude>
        <longitude>-88.12923056</longitude>
    </airport>
    <airport name="Milbank Municipal">
        <iata>1D1</iata>
        <city>Milbank</city>
        <state>SD</state>
        <country>USA</country>
        <latitude>45.23053806</latitude>
        <longitude>-96.56596556</longitude>
    </airport>
    <airport name="Canton -Plymouth -  Mettetal">
        <iata>1D2</iata>
        <city>Plymouth</city>
        <state>MI</state>
        <country>USA</country>
        <latitude>42.35003667</latitude>
        <longitude>-83.45826833</longitude>
    </airport>
    <airport name="Platte Municipal">
        <iata>1D3</iata>
        <city>Platte</city>
        <state>SD</state>
        <country>USA</country>
        <latitude>43.40332833</latitude>
        <longitude>-98.82952972</longitude>
    </airport>
    <airport name="Hector Municipal">
        <iata>1D6</iata>
        <city>Hector</city>
        <state>MN</state>
        <country>USA</country>
        <latitude>44.73107278</latitude>
        <longitude>-94.71471333</longitude>
    </airport>
    <airport name="Webster Municipal">
        <iata>1D7</iata>
        <city>Webster</city>
        <state>SD</state>
        <country>USA</country>
        <latitude>45.29329111</latitude>
        <longitude>-97.51369889</longitude>
    </airport>
    <airport name="Redfield Municipal">
        <iata>1D8</iata>
        <city>Redfield</city>
        <state>SD</state>
        <country>USA</country>
        <latitude>44.86247611</latitude>
        <longitude>-98.52953972</longitude>
    </airport>
    <airport name="Downtown Ardmore">
        <iata>1F0</iata>
        <city>Ardmore</city>
        <state>OK</state>
        <country>USA</country>
        <latitude>34.14698917</latitude>
        <longitude>-97.12265194</longitude>
    </airport>
    <airport name="Lake Murray State Park">
        <iata>1F1</iata>
        <city>Overbrook</city>
        <state>OK</state>
        <country>USA</country>
        <latitude>34.07509694</latitude>
        <longitude>-97.10667917</longitude>
    </airport>
    <airport name="Madill Municipal">
        <iata>1F4</iata>
        <city>Madill</city>
        <state>OK</state>
        <country>USA</country>
        <latitude>34.14040194</latitude>
        <longitude>-96.81203222</longitude>
    </airport>
    <airport name="Bridgeport Municipal">
        <iata>1F9</iata>
        <city>Bridgeport</city>
        <state>TX</state>
        <country>USA</country>
        <latitude>33.17533333</latitude>
        <longitude>-97.82838889</longitude>
    </airport>
    <airport name="Wood County">
        <iata>1G0</iata>
        <city>Bowling Green</city>
        <state>OH</state>
        <country>USA</country>
        <latitude>41.391</latitude>
        <longitude>-83.63013889</longitude>
    </airport>
    <airport name="Kent State University">
        <iata>1G3</iata>
        <city>Kent</city>
        <state>OH</state>
        <country>USA</country>
        <latitude>41.15186167</latitude>
        <longitude>-81.41658306</longitude>
    </airport>
    <airport name="Grand Canyon West">
        <iata>1G4</iata>
        <city>Peach Springs</city>
        <state>AZ</state>
        <country>USA</country>
        <latitude>35.99221</latitude>
        <longitude>-113.8166164</longitude>
    </airport>
    <airport name="Freedom ">
        <iata>1G5</iata>
        <city>Medina</city>
        <state>OH</state>
        <country>USA</country>
        <latitude>41.13144444</latitude>
        <longitude>-81.76491667</longitude>
    </airport>
    <airport name="Michael ">
        <iata>1G6</iata>
        <city>Cicero</city>
        <state>NY</state>
        <country>USA</country>
        <latitude>43.18166667</latitude>
        <longitude>-76.12777778</longitude>
    </airport>
    <airport name="Creve Coeur">
        <iata>1H0</iata>
        <city>St Louis</city>
        <state>MO</state>
        <country>USA</country>
        <latitude>38.72752</latitude>
        <longitude>-90.50830417</longitude>
    </airport>
    <airport name="Effingham County Memorial">
        <iata>1H2</iata>
        <city>Effingham</city>
        <state>IL</state>
        <country>USA</country>
        <latitude>39.07045083</latitude>
        <longitude>-88.53351972</longitude>
    </airport>
    <airport name="Linn State Tech. College">
        <iata>1H3</iata>
        <city>Linn</city>
        <state>MO</state>
        <country>USA</country>
        <latitude>38.47149444</latitude>
        <longitude>-91.81531667</longitude>
    </airport>
    <airport name="Casey Municipal">
        <iata>1H8</iata>
        <city>Casey</city>
        <state>IL</state>
        <country>USA</country>
        <latitude>39.30250917</latitude>
        <longitude>-88.00406194</longitude>
    </airport>
    <airport name="Freehold">
        <iata>1I5</iata>
        <city>Freehold</city>
        <state>NY</state>
        <country>USA</country>
        <latitude>42.36425</latitude>
        <longitude>-74.06596806</longitude>
    </airport>
    <airport name="Delphi Municipal">
        <iata>1I9</iata>
        <city>Delphi</city>
        <state>IN</state>
        <country>USA</country>
        <latitude>40.54281417</latitude>
        <longitude>-86.68167194</longitude>
    </airport>
    <airport name="Tri-County">
        <iata>1J0</iata>
        <city>Bonifay</city>
        <state>FL</state>
        <country>USA</country>
        <latitude>30.84577778</latitude>
        <longitude>-85.60138889</longitude>
    </airport>
    <airport name="Lindsay Municipal">
        <iata>1K2</iata>
        <city>Lindsay</city>
        <state>OK</state>
        <country>USA</country>
        <latitude>34.85007333</latitude>
        <longitude>-97.58642028</longitude>
    </airport>
    <airport name="David J. Perry">
        <iata>1K4</iata>
        <city>Goldsby</city>
        <state>OK</state>
        <country>USA</country>
        <latitude>35.1550675</latitude>
        <longitude>-97.47039389</longitude>
    </airport>
    <airport name="Waynoka Municipal">
        <iata>1K5</iata>
        <city>Waynoka</city>
        <state>OK</state>
        <country>USA</country>
        <latitude>36.56670028</latitude>
        <longitude>-98.85231333</longitude>
    </airport>
    <airport name="Satanta Municipal">
        <iata>1K9</iata>
        <city>Satanta</city>
        <state>KS</state>
        <country>USA</country>
        <latitude>37.45419111</latitude>
        <longitude>-100.9921119</longitude>
    </airport>
    <airport name="St. John the Baptist Parish">
        <iata>1L0</iata>
        <city>Reserve</city>
        <state>LA</state>
        <country>USA</country>
        <latitude>30.08720833</latitude>
        <longitude>-90.58266528</longitude>
    </airport>
    <airport name="Lincoln Co">
        <iata>1L1</iata>
        <city>Panaca</city>
        <state>NV</state>
        <country>USA</country>
        <latitude>37.78746444</latitude>
        <longitude>-114.4216567</longitude>
    </airport>
    <airport name="Escalante Municipal">
        <iata>1L7</iata>
        <city>Escalante</city>
        <state>UT</state>
        <country>USA</country>
        <latitude>37.74532639</latitude>
        <longitude>-111.5701653</longitude>
    </airport>
    <airport name="Parowan">
        <iata>1L9</iata>
        <city>Parowan</city>
        <state>UT</state>
        <country>USA</country>
        <latitude>37.85969694</latitude>
        <longitude>-112.816055</longitude>
    </airport>
    <airport name="North Little Rock Municipal">
        <iata>1M1</iata>
        <city>No Lit Rock</city>
        <state>AR</state>
        <country>USA</country>
        <latitude>34.83398056</latitude>
        <longitude>-92.25792778</longitude>
    </airport>
    <airport name="Belzoni Municipal">
        <iata>1M2</iata>
        <city>Belzoni</city>
        <state>MS</state>
        <country>USA</country>
        <latitude>33.14518056</latitude>
        <longitude>-90.51528472</longitude>
    </airport>
    <airport name="Posey ">
        <iata>1M4</iata>
        <city>Haleyville</city>
        <state>AL</state>
        <country>USA</country>
        <latitude>34.28034806</latitude>
        <longitude>-87.60044139</longitude>
    </airport>
    <airport name="Portland Municipal">
        <iata>1M5</iata>
        <city>Portland</city>
        <state>TN</state>
        <country>USA</country>
        <latitude>36.59287528</latitude>
        <longitude>-86.47691028</longitude>
    </airport>
    <airport name="Fulton">
        <iata>1M7</iata>
        <city>Fulton</city>
        <state>KY</state>
        <country>USA</country>
        <latitude>36.52589417</latitude>
        <longitude>-88.91561611</longitude>
    </airport>
    <airport name="Mountain Grove Memorial">
        <iata>1MO</iata>
        <city>Mountain Grove</city>
        <state>MO</state>
        <country>USA</country>
        <latitude>37.12071889</latitude>
        <longitude>-92.311245</longitude>
    </airport>
    <airport name="Spadaro ">
        <iata>1N2</iata>
        <city>East Moriches</city>
        <state>NY</state>
        <country>USA</country>
        <latitude>40.82787639</latitude>
        <longitude>-72.74871083</longitude>
    </airport>
    <airport name="Woodbine Muni ">
        <iata>1N4</iata>
        <city>Woodbine</city>
        <state>NJ</state>
        <country>USA</country>
        <latitude>39.21915</latitude>
        <longitude>-74.794765</longitude>
    </airport>
    <airport name="Blairstown">
        <iata>1N7</iata>
        <city>Blairstown</city>
        <state>NJ</state>
        <country>USA</country>
        <latitude>40.97114556</latitude>
        <longitude>-74.99747556</longitude>
    </airport>
    <airport name="Allentown Queen City Muni">
        <iata>1N9</iata>
        <city>Allentown</city>
        <state>PA</state>
        <country>USA</country>
        <latitude>40.57027778</latitude>
        <longitude>-75.48830556</longitude>
    </airport>
    <airport name="Hamry ">
        <iata>1ND3</iata>
        <city>Kindred</city>
        <state>ND</state>
        <country>USA</country>
        <latitude>46.6485775</latitude>
        <longitude>-97.00564306</longitude>
    </airport>
    <airport name="Grandfield Municipal">
        <iata>1O1</iata>
        <city>Grandfield</city>
        <state>OK</state>
        <country>USA</country>
        <latitude>34.23758944</latitude>
        <longitude>-98.74200917</longitude>
    </airport>
    <airport name="Lampson ">
        <iata>1O2</iata>
        <city>Lakeport</city>
        <state>CA</state>
        <country>USA</country>
        <latitude>38.99017472</latitude>
        <longitude>-122.8997175</longitude>
    </airport>
    <airport name="Lodi">
        <iata>1O3</iata>
        <city>Lodi</city>
        <state>CA</state>
        <country>USA</country>
        <latitude>38.20241667</latitude>
        <longitude>-121.2684167</longitude>
    </airport>
    <airport name="Thomas Municipal">
        <iata>1O4</iata>
        <city>Thomas</city>
        <state>OK</state>
        <country>USA</country>
        <latitude>35.73338222</latitude>
        <longitude>-98.73063833</longitude>
    </airport>
    <airport name="Dunsmuir Municipal-Mott">
        <iata>1O6</iata>
        <city>Dunsmuir</city>
        <state>CA</state>
        <country>USA</country>
        <latitude>41.26320889</latitude>
        <longitude>-122.2719528</longitude>
    </airport>
    <airport name="Jena">
        <iata>1R1</iata>
        <city>Jena</city>
        <state>LA</state>
        <country>USA</country>
        <latitude>31.671005</latitude>
        <longitude>-92.15846722</longitude>
    </airport>
    <airport name="Brookhaven-Lincoln County">
        <iata>1R7</iata>
        <city>Brookhaven</city>
        <state>MS</state>
        <country>USA</country>
        <latitude>31.6058475</latitude>
        <longitude>-90.40931583</longitude>
    </airport>
    <airport name="Bay Minette Municipal">
        <iata>1R8</iata>
        <city>Bay Minette</city>
        <state>AL</state>
        <country>USA</country>
        <latitude>30.87046278</latitude>
        <longitude>-87.81738167</longitude>
    </airport>
    <airport name="Pierce County ">
        <iata>1S0</iata>
        <city>Puyallup</city>
        <state>WA</state>
        <country>USA</country>
        <latitude>47.10391667</latitude>
        <longitude>-122.2871944</longitude>
    </airport>
    <airport name="Tillitt ">
        <iata>1S3</iata>
        <city>Forsyth</city>
        <state>MT</state>
        <country>USA</country>
        <latitude>46.27110639</latitude>
        <longitude>-106.6239206</longitude>
    </airport>
    <airport name="Sunnyside Municipal">
        <iata>1S5</iata>
        <city>Sunnyside</city>
        <state>WA</state>
        <country>USA</country>
        <latitude>46.32763139</latitude>
        <longitude>-119.9705964</longitude>
    </airport>
    <airport name="Priest River Muni">
        <iata>1S6</iata>
        <city>Priest River</city>
        <state>ID</state>
        <country>USA</country>
        <latitude>48.19018611</latitude>
        <longitude>-116.9093644</longitude>
    </airport>
    <airport name="Bear Lake County">
        <iata>1U7</iata>
        <city>Paris</city>
        <state>ID</state>
        <country>USA</country>
        <latitude>42.24714972</latitude>
        <longitude>-111.33826</longitude>
    </airport>
    <airport name="Navajo State Park ">
        <iata>1V0</iata>
        <city>Navajo Dam</city>
        <state>NM</state>
        <country>USA</country>
        <latitude>36.80833833</latitude>
        <longitude>-107.6514444</longitude>
    </airport>
    <airport name="Grant County ">
        <iata>1V2</iata>
        <city>Hyannis</city>
        <state>NE</state>
        <country>USA</country>
        <latitude>42.00942944</latitude>
        <longitude>-101.7693439</longitude>
    </airport>
    <airport name="Boulder Muni">
        <iata>1V5</iata>
        <city>Boulder</city>
        <state>CO</state>
        <country>USA</country>
        <latitude>40.03942972</latitude>
        <longitude>-105.2258217</longitude>
    </airport>
    <airport name="Fremont County">
        <iata>1V6</iata>
        <city>Canon City</city>
        <state>CO</state>
        <country>USA</country>
        <latitude>38.42838111</latitude>
        <longitude>-105.1054994</longitude>
    </airport>
    <airport name="Blake ">
        <iata>1V9</iata>
        <city>Delta</city>
        <state>CO</state>
        <country>USA</country>
        <latitude>38.78539722</latitude>
        <longitude>-108.0636611</longitude>
    </airport>
    <airport name="Robbins ">
        <iata>20A</iata>
        <city>Oneonta</city>
        <state>AL</state>
        <country>USA</country>
        <latitude>33.97231972</latitude>
        <longitude>-86.37942722</longitude>
    </airport>
    <airport name="Macon Municipal">
        <iata>20M</iata>
        <city>Macon</city>
        <state>MS</state>
        <country>USA</country>
        <latitude>33.13345889</latitude>
        <longitude>-88.53559806</longitude>
    </airport>
    <airport name="Kingston-Ulster">
        <iata>20N</iata>
        <city>Kingston</city>
        <state>NY</state>
        <country>USA</country>
        <latitude>41.9852525</latitude>
        <longitude>-73.96409722</longitude>
    </airport>
    <airport name="Beach">
        <iata>20U</iata>
        <city>Beach</city>
        <state>ND</state>
        <country>USA</country>
        <latitude>46.92362444</latitude>
        <longitude>-103.9785389</longitude>
    </airport>
    <airport name="McElroy Airfield">
        <iata>20V</iata>
        <city>Kremmling</city>
        <state>CO</state>
        <country>USA</country>
        <latitude>40.05367972</latitude>
        <longitude>-106.3689467</longitude>
    </airport>
    <airport name="Lake Elmo">
        <iata>21D</iata>
        <city>St Paul</city>
        <state>MN</state>
        <country>USA</country>
        <latitude>44.99748861</latitude>
        <longitude>-92.85568111</longitude>
    </airport>
    <airport name="Jacksboro Municipal">
        <iata>21F</iata>
        <city>Jacksboro</city>
        <state>TX</state>
        <country>USA</country>
        <latitude>33.228725</latitude>
        <longitude>-98.14671083</longitude>
    </airport>
    <airport name="Mountain Meadow Airstrip">
        <iata>22B</iata>
        <city>Burlington</city>
        <state>CT</state>
        <country>USA</country>
        <latitude>41.77287528</latitude>
        <longitude>-73.01121667</longitude>
    </airport>
    <airport name="Vinton County">
        <iata>22I</iata>
        <city>McArthur</city>
        <state>OH</state>
        <country>USA</country>
        <latitude>39.328125</latitude>
        <longitude>-82.44182167</longitude>
    </airport>
    <airport name="Pontotoc County">
        <iata>22M</iata>
        <city>Pontotoc</city>
        <state>MS</state>
        <country>USA</country>
        <latitude>34.27593833</latitude>
        <longitude>-89.03839694</longitude>
    </airport>
    <airport name="Carbon Cty-Jake Arner Memorial">
        <iata>22N</iata>
        <city>Lehighton</city>
        <state>PA</state>
        <country>USA</country>
        <latitude>40.80950889</latitude>
        <longitude>-75.76149639</longitude>
    </airport>
    <airport name="Herlong">
        <iata>23J</iata>
        <city>Jacksonville</city>
        <state>FL</state>
        <country>USA</country>
        <latitude>30.27778889</latitude>
        <longitude>-81.80594722</longitude>
    </airport>
    <airport name="Clarke County">
        <iata>23M</iata>
        <city>Quitman</city>
        <state>MS</state>
        <country>USA</country>
        <latitude>32.08487111</latitude>
        <longitude>-88.73893389</longitude>
    </airport>
    <airport name="Bayport Aerodrome">
        <iata>23N</iata>
        <city>Bayport</city>
        <state>NY</state>
        <country>USA</country>
        <latitude>40.75843139</latitude>
        <longitude>-73.05372083</longitude>
    </airport>
    <airport name="Devine Municipal">
        <iata>23R</iata>
        <city>Devine</city>
        <state>TX</state>
        <country>USA</country>
        <latitude>29.1384075</latitude>
        <longitude>-98.94189028</longitude>
    </airport>
    <airport name="Jackson County">
        <iata>24A</iata>
        <city>Sylva</city>
        <state>NC</state>
        <country>USA</country>
        <latitude>35.3168625</latitude>
        <longitude>-83.20936806</longitude>
    </airport>
    <airport name="Suwannee County">
        <iata>24J</iata>
        <city>Live Oak</city>
        <state>FL</state>
        <country>USA</country>
        <latitude>30.30105583</latitude>
        <longitude>-83.02318778</longitude>
    </airport>
    <airport name="Jicarilla Apache Nation">
        <iata>24N</iata>
        <city>Dulce</city>
        <state>NM</state>
        <country>USA</country>
        <latitude>36.828535</latitude>
        <longitude>-106.8841914</longitude>
    </airport>
    <airport name="Cuthbert-Randolph">
        <iata>25J</iata>
        <city>Cuthbert</city>
        <state>GA</state>
        <country>USA</country>
        <latitude>31.70016583</latitude>
        <longitude>-84.82492194</longitude>
    </airport>
    <airport name="Ripley ">
        <iata>25M</iata>
        <city>Ripley</city>
        <state>MS</state>
        <country>USA</country>
        <latitude>34.72226778</latitude>
        <longitude>-89.01504944</longitude>
    </airport>
    <airport name="International">
        <iata>25R</iata>
        <city>Edinburg</city>
        <state>TX</state>
        <country>USA</country>
        <latitude>26.44201083</latitude>
        <longitude>-98.12945306</longitude>
    </airport>
    <airport name="Ashland/Lineville">
        <iata>26A</iata>
        <city>Ashland/Lineville</city>
        <state>AL</state>
        <country>USA</country>
        <latitude>33.28761417</latitude>
        <longitude>-85.80412861</longitude>
    </airport>
    <airport name="Ocean City Muni cipal">
        <iata>26N</iata>
        <city>Ocean City</city>
        <state>NJ</state>
        <country>USA</country>
        <latitude>39.26347222</latitude>
        <longitude>-74.60747222</longitude>
    </airport>
    <airport name="Jackson County">
        <iata>26R</iata>
        <city>Edna/Ganado</city>
        <state>TX</state>
        <country>USA</country>
        <latitude>29.00101</latitude>
        <longitude>-96.58194667</longitude>
    </airport>
    <airport name="McDermitt State">
        <iata>26U</iata>
        <city>McDermitt</city>
        <state>OR</state>
        <country>USA</country>
        <latitude>42.00211083</latitude>
        <longitude>-117.7231972</longitude>
    </airport>
    <airport name="Elbert County-Patz ">
        <iata>27A</iata>
        <city>Elberton</city>
        <state>GA</state>
        <country>USA</country>
        <latitude>34.09519722</latitude>
        <longitude>-82.81586417</longitude>
    </airport>
    <airport name="Myers ">
        <iata>27D</iata>
        <city>Canby</city>
        <state>MN</state>
        <country>USA</country>
        <latitude>44.72801889</latitude>
        <longitude>-96.26309972</longitude>
    </airport>
    <airport name="Newberry Municipal">
        <iata>27J</iata>
        <city>Newberry</city>
        <state>SC</state>
        <country>USA</country>
        <latitude>34.30927778</latitude>
        <longitude>-81.63972222</longitude>
    </airport>
    <airport name="Georgetown-Scott County">
        <iata>27K</iata>
        <city>Georgetown</city>
        <state>KY</state>
        <country>USA</country>
        <latitude>38.23442528</latitude>
        <longitude>-84.43468667</longitude>
    </airport>
    <airport name="Kay Larkin">
        <iata>28J</iata>
        <city>Palatka</city>
        <state>FL</state>
        <country>USA</country>
        <latitude>29.65863889</latitude>
        <longitude>-81.68855556</longitude>
    </airport>
    <airport name="Grove City">
        <iata>29D</iata>
        <city>Grove City</city>
        <state>PA</state>
        <country>USA</country>
        <latitude>41.14597611</latitude>
        <longitude>-80.16592194</longitude>
    </airport>
    <airport name="Portage County">
        <iata>29G</iata>
        <city>Ravenna</city>
        <state>OH</state>
        <country>USA</country>
        <latitude>41.210195</latitude>
        <longitude>-81.25163083</longitude>
    </airport>
    <airport name="Gardiner">
        <iata>29S</iata>
        <city>Gardiner</city>
        <state>MT</state>
        <country>USA</country>
        <latitude>45.04993556</latitude>
        <longitude>-110.7466008</longitude>
    </airport>
    <airport name="Mark Anton">
        <iata>2A0</iata>
        <city>Dayton</city>
        <state>TN</state>
        <country>USA</country>
        <latitude>35.48624611</latitude>
        <longitude>-84.93109722</longitude>
    </airport>
    <airport name="Jamestown Municipal">
        <iata>2A1</iata>
        <city>Jamestown</city>
        <state>TN</state>
        <country>USA</country>
        <latitude>36.34970833</latitude>
        <longitude>-84.94664472</longitude>
    </airport>
    <airport name="Larsen Bay">
        <iata>2A3</iata>
        <city>Larsen Bay</city>
        <state>AK</state>
        <country>USA</country>
        <latitude>57.53510667</latitude>
        <longitude>-153.9784169</longitude>
    </airport>
    <airport name="Kotlik">
        <iata>2A9</iata>
        <city>Kotlik</city>
        <state>AK</state>
        <country>USA</country>
        <latitude>63.03116111</latitude>
        <longitude>-163.5299278</longitude>
    </airport>
    <airport name="Lime Village">
        <iata>2AK</iata>
        <city>Lime Village</city>
        <state>AK</state>
        <country>USA</country>
        <latitude>61.35848528</latitude>
        <longitude>-155.4403508</longitude>
    </airport>
    <airport name="Parlin ">
        <iata>2B3</iata>
        <city>Newport</city>
        <state>NH</state>
        <country>USA</country>
        <latitude>43.38812944</latitude>
        <longitude>-72.18925417</longitude>
    </airport>
    <airport name="Pittsfield Municipal">
        <iata>2B7</iata>
        <city>Pittsfield</city>
        <state>ME</state>
        <country>USA</country>
        <latitude>44.76852778</latitude>
        <longitude>-69.37441667</longitude>
    </airport>
    <airport name="Post Mills">
        <iata>2B9</iata>
        <city>Post Mills</city>
        <state>VT</state>
        <country>USA</country>
        <latitude>43.884235</latitude>
        <longitude>-72.25370333</longitude>
    </airport>
    <airport name="Barber">
        <iata>2D1</iata>
        <city>Alliance</city>
        <state>OH</state>
        <country>USA</country>
        <latitude>40.97089139</latitude>
        <longitude>-81.09981889</longitude>
    </airport>
    <airport name="Oakes Municipal">
        <iata>2D5</iata>
        <city>Oakes</city>
        <state>ND</state>
        <country>USA</country>
        <latitude>46.17301972</latitude>
        <longitude>-98.07987556</longitude>
    </airport>
    <airport name="Lamesa Municipal">
        <iata>2F5</iata>
        <city>Lamesa</city>
        <state>TX</state>
        <country>USA</country>
        <latitude>32.75627778</latitude>
        <longitude>-101.9194722</longitude>
    </airport>
    <airport name="Skiatook Municipal">
        <iata>2F6</iata>
        <city>Skiatook</city>
        <state>OK</state>
        <country>USA</country>
        <latitude>36.357035</latitude>
        <longitude>-96.01138556</longitude>
    </airport>
    <airport name="Commerce Municipal">
        <iata>2F7</iata>
        <city>Commerce</city>
        <state>TX</state>
        <country>USA</country>
        <latitude>33.29288889</latitude>
        <longitude>-95.89641806</longitude>
    </airport>
    <airport name="Morehouse Memorial">
        <iata>2F8</iata>
        <city>Bastrop</city>
        <state>LA</state>
        <country>USA</country>
        <latitude>32.75607944</latitude>
        <longitude>-91.88057194</longitude>
    </airport>
    <airport name="Jefferson County Airpark">
        <iata>2G2</iata>
        <city>Steubenville</city>
        <state>OH</state>
        <country>USA</country>
        <latitude>40.35944306</latitude>
        <longitude>-80.70007806</longitude>
    </airport>
    <airport name="Connellsville">
        <iata>2G3</iata>
        <city>Connellsville</city>
        <state>PA</state>
        <country>USA</country>
        <latitude>39.95893667</latitude>
        <longitude>-79.65713306</longitude>
    </airport>
    <airport name="Garrett County">
        <iata>2G4</iata>
        <city>Oakland</city>
        <state>MD</state>
        <country>USA</country>
        <latitude>39.58027778</latitude>
        <longitude>-79.33941667</longitude>
    </airport>
    <airport name="Somerset County">
        <iata>2G9</iata>
        <city>Somerset</city>
        <state>PA</state>
        <country>USA</country>
        <latitude>40.03911111</latitude>
        <longitude>-79.01455556</longitude>
    </airport>
    <airport name="Shelby County">
        <iata>2H0</iata>
        <city>Shelbyville</city>
        <state>IL</state>
        <country>USA</country>
        <latitude>39.41042861</latitude>
        <longitude>-88.8454325</longitude>
    </airport>
    <airport name="Aurora Memorial Municipal">
        <iata>2H2</iata>
        <city>Aurora</city>
        <state>MO</state>
        <country>USA</country>
        <latitude>36.96230778</latitude>
        <longitude>-93.69531111</longitude>
    </airport>
    <airport name="Madisonville Municipal">
        <iata>2I0</iata>
        <city>Madisonville</city>
        <state>KY</state>
        <country>USA</country>
        <latitude>37.35502778</latitude>
        <longitude>-87.39963889</longitude>
    </airport>
    <airport name="Chanute">
        <iata>2I5</iata>
        <city>Rantoul</city>
        <state>IL</state>
        <country>USA</country>
        <latitude>40.29355556</latitude>
        <longitude>-88.14236111</longitude>
    </airport>
    <airport name="Airglades">
        <iata>2IS</iata>
        <city>Clewiston</city>
        <state>FL</state>
        <country>USA</country>
        <latitude>26.74200972</latitude>
        <longitude>-81.04978917</longitude>
    </airport>
    <airport name="Liberty County">
        <iata>2J2</iata>
        <city>Hinesville</city>
        <state>GA</state>
        <country>USA</country>
        <latitude>31.78461111</latitude>
        <longitude>-81.64116667</longitude>
    </airport>
    <airport name="Louisville Municipal">
        <iata>2J3</iata>
        <city>Louisville</city>
        <state>GA</state>
        <country>USA</country>
        <latitude>32.98654083</latitude>
        <longitude>-82.38568139</longitude>
    </airport>
    <airport name="Millen">
        <iata>2J5</iata>
        <city>Millen</city>
        <state>GA</state>
        <country>USA</country>
        <latitude>32.89376972</latitude>
        <longitude>-81.96511583</longitude>
    </airport>
    <airport name="Quincy Municipal">
        <iata>2J9</iata>
        <city>Quincy</city>
        <state>FL</state>
        <country>USA</country>
        <latitude>30.59786111</latitude>
        <longitude>-84.55741667</longitude>
    </airport>
    <airport name="Stanton County Municipal">
        <iata>2K3</iata>
        <city>Johnson</city>
        <state>KS</state>
        <country>USA</country>
        <latitude>37.58271111</latitude>
        <longitude>-101.73281</longitude>
    </airport>
    <airport name="Scott ">
        <iata>2K4</iata>
        <city>Mangum</city>
        <state>OK</state>
        <country>USA</country>
        <latitude>34.89172583</latitude>
        <longitude>-99.52675667</longitude>
    </airport>
    <airport name="Telida">
        <iata>2K5</iata>
        <city>Telida</city>
        <state>AK</state>
        <country>USA</country>
        <latitude>63.39387278</latitude>
        <longitude>-153.2689733</longitude>
    </airport>
    <airport name="Princeton-Caldwell County">
        <iata>2M0</iata>
        <city>Princeton</city>
        <state>KY</state>
        <country>USA</country>
        <latitude>37.11560444</latitude>
        <longitude>-87.85556944</longitude>
    </airport>
    <airport name="Lawrenceburg Municipal">
        <iata>2M2</iata>
        <city>Lawrenceburg</city>
        <state>TN</state>
        <country>USA</country>
        <latitude>35.2343025</latitude>
        <longitude>-87.25793222</longitude>
    </airport>
    <airport name="Sallisaw Municipal">
        <iata>2M3</iata>
        <city>Sallisaw</city>
        <state>OK</state>
        <country>USA</country>
        <latitude>35.43816667</latitude>
        <longitude>-94.80277778</longitude>
    </airport>
    <airport name="G. V. Montgomery">
        <iata>2M4</iata>
        <city>Forest</city>
        <state>MS</state>
        <country>USA</country>
        <latitude>32.35347778</latitude>
        <longitude>-89.48867944</longitude>
    </airport>
    <airport name="Charles W. Baker">
        <iata>2M8</iata>
        <city>Millington</city>
        <state>TN</state>
        <country>USA</country>
        <latitude>35.27897583</latitude>
        <longitude>-89.93147611</longitude>
    </airport>
    <airport name="Gansner ">
        <iata>2O1</iata>
        <city>Quincy</city>
        <state>CA</state>
        <country>USA</country>
        <latitude>39.94378056</latitude>
        <longitude>-120.9468983</longitude>
    </airport>
    <airport name="Angwin-Parrett ">
        <iata>2O3</iata>
        <city>Angwin</city>
        <state>CA</state>
        <country>USA</country>
        <latitude>38.57851778</latitude>
        <longitude>-122.4352572</longitude>
    </airport>
    <airport name="Chowchilla">
        <iata>2O6</iata>
        <city>Chowchilla</city>
        <state>CA</state>
        <country>USA</country>
        <latitude>37.11244417</latitude>
        <longitude>-120.2468406</longitude>
    </airport>
    <airport name="Independence">
        <iata>2O7</iata>
        <city>Independence</city>
        <state>CA</state>
        <country>USA</country>
        <latitude>36.81382111</latitude>
        <longitude>-118.2050956</longitude>
    </airport>
    <airport name="Hinton Municipal">
        <iata>2O8</iata>
        <city>Hinton</city>
        <state>OK</state>
        <country>USA</country>
        <latitude>35.50592472</latitude>
        <longitude>-98.34236111</longitude>
    </airport>
    <airport name="Washington Island">
        <iata>2P2</iata>
        <city>Washington Island</city>
        <state>WI</state>
        <country>USA</country>
        <latitude>45.38620833</latitude>
        <longitude>-86.92448056</longitude>
    </airport>
    <airport name="Yolo Co-Davis/Woodland/Winters">
        <iata>2Q3</iata>
        <city>Davis/Woodland/Winters</city>
        <state>CA</state>
        <country>USA</country>
        <latitude>38.5790725</latitude>
        <longitude>-121.8566322</longitude>
    </airport>
    <airport name="Waynesboro Municipal">
        <iata>2R0</iata>
        <city>Waynesboro</city>
        <state>MS</state>
        <country>USA</country>
        <latitude>31.64599472</latitude>
        <longitude>-88.63475667</longitude>
    </airport>
    <airport name="Peter Prince ">
        <iata>2R4</iata>
        <city>Milton</city>
        <state>FL</state>
        <country>USA</country>
        <latitude>30.63762083</latitude>
        <longitude>-86.99365278</longitude>
    </airport>
    <airport name="St Elmo">
        <iata>2R5</iata>
        <city>St Elmo</city>
        <state>AL</state>
        <country>USA</country>
        <latitude>30.50190833</latitude>
        <longitude>-88.27511667</longitude>
    </airport>
    <airport name="Karnes County">
        <iata>2R9</iata>
        <city>Kenedy</city>
        <state>TX</state>
        <country>USA</country>
        <latitude>28.8250075</latitude>
        <longitude>-97.86558333</longitude>
    </airport>
    <airport name="Vashon Municipal">
        <iata>2S1</iata>
        <city>Vashon</city>
        <state>WA</state>
        <country>USA</country>
        <latitude>47.45815333</latitude>
        <longitude>-122.4773506</longitude>
    </airport>
    <airport name="Sportsman Airpark">
        <iata>2S6</iata>
        <city>Newberg</city>
        <state>OR</state>
        <country>USA</country>
        <latitude>45.29567333</latitude>
        <longitude>-122.9553783</longitude>
    </airport>
    <airport name="Chiloquin State">
        <iata>2S7</iata>
        <city>Chiloquin</city>
        <state>OR</state>
        <country>USA</country>
        <latitude>42.58319167</latitude>
        <longitude>-121.8761261</longitude>
    </airport>
    <airport name="Wilbur">
        <iata>2S8</iata>
        <city>Wilbur</city>
        <state>WA</state>
        <country>USA</country>
        <latitude>47.75320639</latitude>
        <longitude>-118.7438936</longitude>
    </airport>
    <airport name="Muleshoe Municipal">
        <iata>2T1</iata>
        <city>Muleshoe</city>
        <state>TX</state>
        <country>USA</country>
        <latitude>34.18513639</latitude>
        <longitude>-102.6410981</longitude>
    </airport>
    <airport name="Stevens ">
        <iata>2V1</iata>
        <city>Pagosa Springs</city>
        <state>CO</state>
        <country>USA</country>
        <latitude>37.277505</latitude>
        <longitude>-107.0558742</longitude>
    </airport>
    <airport name="Vance Brand">
        <iata>2V2</iata>
        <city>Longmont</city>
        <state>CO</state>
        <country>USA</country>
        <latitude>40.16367139</latitude>
        <longitude>-105.1630369</longitude>
    </airport>
    <airport name="Wray Municipal">
        <iata>2V5</iata>
        <city>Wray</city>
        <state>CO</state>
        <country>USA</country>
        <latitude>40.10032333</latitude>
        <longitude>-102.24096</longitude>
    </airport>
    <airport name="Yuma Municipal">
        <iata>2V6</iata>
        <city>Yuma</city>
        <state>CO</state>
        <country>USA</country>
        <latitude>40.10415306</latitude>
        <longitude>-102.7129869</longitude>
    </airport>
    <airport name="Maryland">
        <iata>2W5</iata>
        <city>Indian Head</city>
        <state>MD</state>
        <country>USA</country>
        <latitude>38.60053667</latitude>
        <longitude>-77.07296917</longitude>
    </airport>
    <airport name="Captain Walter Francis Duke Regional ">
        <iata>2W6</iata>
        <city>Leonardtown</city>
        <state>MD</state>
        <country>USA</country>
        <latitude>38.31536111</latitude>
        <longitude>-76.55011111</longitude>
    </airport>
    <airport name="Yakutat SPB">
        <iata>2Y3</iata>
        <city>Yakutat</city>
        <state>AK</state>
        <country>USA</country>
        <latitude>59.5624775</latitude>
        <longitude>-139.7410994</longitude>
    </airport>
    <airport name="Rockwell City Municipal">
        <iata>2Y4</iata>
        <city>Rockwell City</city>
        <state>IA</state>
        <country>USA</country>
        <latitude>42.38748056</latitude>
        <longitude>-94.61803333</longitude>
    </airport>
    <airport name="Gaines County">
        <iata>31F</iata>
        <city>Seminole</city>
        <state>TX</state>
        <country>USA</country>
        <latitude>32.67535389</latitude>
        <longitude>-102.652685</longitude>
    </airport>
    <airport name="Norfolk">
        <iata>32M</iata>
        <city>Norfolk</city>
        <state>MA</state>
        <country>USA</country>
        <latitude>42.12787528</latitude>
        <longitude>-71.37033556</longitude>
    </airport>
    <airport name="Stevensville">
        <iata>32S</iata>
        <city>Stevensville</city>
        <state>MT</state>
        <country>USA</country>
        <latitude>46.52511111</latitude>
        <longitude>-114.0528056</longitude>
    </airport>
    <airport name="Geneva Municipal">
        <iata>33J</iata>
        <city>Geneva</city>
        <state>AL</state>
        <country>USA</country>
        <latitude>31.05527778</latitude>
        <longitude>-85.88033333</longitude>
    </airport>
    <airport name="Water Valley ">
        <iata>33M</iata>
        <city>Water Valley</city>
        <state>MS</state>
        <country>USA</country>
        <latitude>34.16677639</latitude>
        <longitude>-89.68619722</longitude>
    </airport>
    <airport name="Delaware Airpark">
        <iata>33N</iata>
        <city>Dover</city>
        <state>DE</state>
        <country>USA</country>
        <latitude>39.21837556</latitude>
        <longitude>-75.59642667</longitude>
    </airport>
    <airport name="Pru ">
        <iata>33S</iata>
        <city>Ritzville</city>
        <state>WA</state>
        <country>USA</country>
        <latitude>47.12487194</latitude>
        <longitude>-118.3927539</longitude>
    </airport>
    <airport name="Laurens County">
        <iata>34A</iata>
        <city>Laurens</city>
        <state>SC</state>
        <country>USA</country>
        <latitude>34.50705556</latitude>
        <longitude>-81.94719444</longitude>
    </airport>
    <airport name="Union County, Troy Shelton ">
        <iata>35A</iata>
        <city>Union</city>
        <state>SC</state>
        <country>USA</country>
        <latitude>34.68680111</latitude>
        <longitude>-81.64121167</longitude>
    </airport>
    <airport name="Padgham ">
        <iata>35D</iata>
        <city>Allegan</city>
        <state>MI</state>
        <country>USA</country>
        <latitude>42.53098278</latitude>
        <longitude>-85.82513556</longitude>
    </airport>
    <airport name="Wasco State">
        <iata>35S</iata>
        <city>Wasco</city>
        <state>OR</state>
        <country>USA</country>
        <latitude>45.58944444</latitude>
        <longitude>-120.6741667</longitude>
    </airport>
    <airport name="Lakin">
        <iata>36K</iata>
        <city>Lakin</city>
        <state>KS</state>
        <country>USA</country>
        <latitude>37.96946389</latitude>
        <longitude>-101.2554472</longitude>
    </airport>
    <airport name="Happy Camp">
        <iata>36S</iata>
        <city>Happy Camp</city>
        <state>CA</state>
        <country>USA</country>
        <latitude>41.79067944</latitude>
        <longitude>-123.3889444</longitude>
    </airport>
    <airport name="Heber City Municipal/Russ McDonald ">
        <iata>36U</iata>
        <city>Heber</city>
        <state>UT</state>
        <country>USA</country>
        <latitude>40.48180556</latitude>
        <longitude>-111.4288056</longitude>
    </airport>
    <airport name="Calico Rock-Izard County">
        <iata>37T</iata>
        <city>Calico Rock</city>
        <state>AR</state>
        <country>USA</country>
        <latitude>36.16565278</latitude>
        <longitude>-92.14523611</longitude>
    </airport>
    <airport name="Harnett County">
        <iata>37W</iata>
        <city>Erwin</city>
        <state>NC</state>
        <country>USA</country>
        <latitude>35.37880028</latitude>
        <longitude>-78.73362917</longitude>
    </airport>
    <airport name="Shaktoolik">
        <iata>38A</iata>
        <city>Shaktoolik</city>
        <state>AK</state>
        <country>USA</country>
        <latitude>64.36263194</latitude>
        <longitude>-161.2025369</longitude>
    </airport>
    <airport name="Deer Lodge-City-County">
        <iata>38S</iata>
        <city>Deer Lodge</city>
        <state>MT</state>
        <country>USA</country>
        <latitude>46.38881583</latitude>
        <longitude>-112.7669842</longitude>
    </airport>
    <airport name="Wayne Wonderland">
        <iata>38U</iata>
        <city>Loa</city>
        <state>UT</state>
        <country>USA</country>
        <latitude>38.36247972</latitude>
        <longitude>-111.5960164</longitude>
    </airport>
    <airport name="Princeton">
        <iata>39N</iata>
        <city>Princeton</city>
        <state>NJ</state>
        <country>USA</country>
        <latitude>40.39834833</latitude>
        <longitude>-74.65760361</longitude>
    </airport>
    <airport name="Grove Hill Municipal">
        <iata>3A0</iata>
        <city>Grove Hill</city>
        <state>AL</state>
        <country>USA</country>
        <latitude>31.68932389</latitude>
        <longitude>-87.7613875</longitude>
    </airport>
    <airport name="Folsom ">
        <iata>3A1</iata>
        <city>Cullman</city>
        <state>AL</state>
        <country>USA</country>
        <latitude>34.26870833</latitude>
        <longitude>-86.85833611</longitude>
    </airport>
    <airport name="New Tazewell Municipal">
        <iata>3A2</iata>
        <city>Tazewell</city>
        <state>TN</state>
        <country>USA</country>
        <latitude>36.41008417</latitude>
        <longitude>-83.55546167</longitude>
    </airport>
    <airport name="Anson County">
        <iata>3A3</iata>
        <city>Wadesboro</city>
        <state>NC</state>
        <country>USA</country>
        <latitude>35.02397611</latitude>
        <longitude>-80.08127333</longitude>
    </airport>
    <airport name="Augusta Municipal">
        <iata>3AU</iata>
        <city>Augusta</city>
        <state>KS</state>
        <country>USA</country>
        <latitude>37.67162778</latitude>
        <longitude>-97.07787222</longitude>
    </airport>
    <airport name="Southbridge Municipal">
        <iata>3B0</iata>
        <city>Southbridge</city>
        <state>MA</state>
        <country>USA</country>
        <latitude>42.10092806</latitude>
        <longitude>-72.03840833</longitude>
    </airport>
    <airport name="Greenville Municipal">
        <iata>3B1</iata>
        <city>Greenville</city>
        <state>ME</state>
        <country>USA</country>
        <latitude>45.46302778</latitude>
        <longitude>-69.55161111</longitude>
    </airport>
    <airport name="Marshfield">
        <iata>3B2</iata>
        <city>Marshfield</city>
        <state>MA</state>
        <country>USA</country>
        <latitude>42.09824111</latitude>
        <longitude>-70.67212083</longitude>
    </airport>
    <airport name="Chester">
        <iata>3B9</iata>
        <city>Chester</city>
        <state>CT</state>
        <country>USA</country>
        <latitude>41.38390472</latitude>
        <longitude>-72.50589444</longitude>
    </airport>
    <airport name="Jack Barstow">
        <iata>3BS</iata>
        <city>Midland</city>
        <state>MI</state>
        <country>USA</country>
        <latitude>43.66291528</latitude>
        <longitude>-84.261325</longitude>
    </airport>
    <airport name="Lake In The Hills">
        <iata>3CK</iata>
        <city>Lake In The Hills</city>
        <state>IL</state>
        <country>USA</country>
        <latitude>42.20680306</latitude>
        <longitude>-88.32304028</longitude>
    </airport>
    <airport name="James Clements Municipal">
        <iata>3CM</iata>
        <city>Bay City</city>
        <state>MI</state>
        <country>USA</country>
        <latitude>43.54691667</latitude>
        <longitude>-83.89550222</longitude>
    </airport>
    <airport name="Cable Union">
        <iata>3CU</iata>
        <city>Cable</city>
        <state>WI</state>
        <country>USA</country>
        <latitude>46.19424889</latitude>
        <longitude>-91.24640972</longitude>
    </airport>
    <airport name="Ephraim/Gibraltar">
        <iata>3D2</iata>
        <city>Ephraim</city>
        <state>WI</state>
        <country>USA</country>
        <latitude>45.13535778</latitude>
        <longitude>-87.18586556</longitude>
    </airport>
    <airport name="Frankfort Dow Memorial">
        <iata>3D4</iata>
        <city>Frankfort</city>
        <state>MI</state>
        <country>USA</country>
        <latitude>44.62506389</latitude>
        <longitude>-86.20061944</longitude>
    </airport>
    <airport name="De Soto Parish">
        <iata>3F3</iata>
        <city>Mansfield</city>
        <state>LA</state>
        <country>USA</country>
        <latitude>32.07345972</latitude>
        <longitude>-93.76551889</longitude>
    </airport>
    <airport name="Vivian">
        <iata>3F4</iata>
        <city>Vivian</city>
        <state>LA</state>
        <country>USA</country>
        <latitude>32.86133333</latitude>
        <longitude>-94.01015361</longitude>
    </airport>
    <airport name="Jones Memorial">
        <iata>3F7</iata>
        <city>Bristow</city>
        <state>OK</state>
        <country>USA</country>
        <latitude>35.80685278</latitude>
        <longitude>-96.42185556</longitude>
    </airport>
    <airport name="Fremont Municipal">
        <iata>3FM</iata>
        <city>Fremont</city>
        <state>MI</state>
        <country>USA</country>
        <latitude>43.43890528</latitude>
        <longitude>-85.99478</longitude>
    </airport>
    <airport name="Faulkton Municipal">
        <iata>3FU</iata>
        <city>Faulkton</city>
        <state>SD</state>
        <country>USA</country>
        <latitude>45.03191861</latitude>
        <longitude>-99.11566417</longitude>
    </airport>
    <airport name="Wadsworth Municipal">
        <iata>3G3</iata>
        <city>Wadsworth</city>
        <state>OH</state>
        <country>USA</country>
        <latitude>41.00158222</latitude>
        <longitude>-81.75513111</longitude>
    </airport>
    <airport name="Ashland County">
        <iata>3G4</iata>
        <city>Ashland</city>
        <state>OH</state>
        <country>USA</country>
        <latitude>40.90297222</latitude>
        <longitude>-82.25563889</longitude>
    </airport>
    <airport name="Williamson/Sodus">
        <iata>3G7</iata>
        <city>Williamson</city>
        <state>NY</state>
        <country>USA</country>
        <latitude>43.23472222</latitude>
        <longitude>-77.12097222</longitude>
    </airport>
    <airport name="Grand Haven Memorial Airpark">
        <iata>3GM</iata>
        <city>Grand Haven</city>
        <state>MI</state>
        <country>USA</country>
        <latitude>43.03404639</latitude>
        <longitude>-86.1981625</longitude>
    </airport>
    <airport name="Mason County">
        <iata>3I2</iata>
        <city>Point Pleasant</city>
        <state>WV</state>
        <country>USA</country>
        <latitude>38.91463889</latitude>
        <longitude>-82.09858333</longitude>
    </airport>
    <airport name="Phillipsburg">
        <iata>3I7</iata>
        <city>Phillipsburg</city>
        <state>OH</state>
        <country>USA</country>
        <latitude>39.91344194</latitude>
        <longitude>-84.40030889</longitude>
    </airport>
    <airport name="Ridgeland">
        <iata>3J1</iata>
        <city>Ridgeland</city>
        <state>SC</state>
        <country>USA</country>
        <latitude>32.49268694</latitude>
        <longitude>-80.99233028</longitude>
    </airport>
    <airport name="Greene County Airpark">
        <iata>3J7</iata>
        <city>Greensboro</city>
        <state>GA</state>
        <country>USA</country>
        <latitude>33.59766667</latitude>
        <longitude>-83.139</longitude>
    </airport>
    <airport name="Freeman ">
        <iata>3JC</iata>
        <city>Junction City</city>
        <state>KS</state>
        <country>USA</country>
        <latitude>39.04327556</latitude>
        <longitude>-96.84328694</longitude>
    </airport>
    <airport name="Syracuse-Hamilton County Municipal">
        <iata>3K3</iata>
        <city>Syracuse</city>
        <state>KS</state>
        <country>USA</country>
        <latitude>37.99167972</latitude>
        <longitude>-101.7462822</longitude>
    </airport>
    <airport name="St Louis-Metro East">
        <iata>3K6</iata>
        <city>Troy/Marine/St. Louis</city>
        <state>IL</state>
        <country>USA</country>
        <latitude>38.73290861</latitude>
        <longitude>-89.80656722</longitude>
    </airport>
    <airport name="Mark Hoard Memorial">
        <iata>3K7</iata>
        <city>Leoti</city>
        <state>KS</state>
        <country>USA</country>
        <latitude>38.45696333</latitude>
        <longitude>-101.3532161</longitude>
    </airport>
    <airport name="Logan County">
        <iata>3LC</iata>
        <city>Lincoln</city>
        <state>IL</state>
        <country>USA</country>
        <latitude>40.15847222</latitude>
        <longitude>-89.33497222</longitude>
    </airport>
    <airport name="Litchfield Municipal">
        <iata>3LF</iata>
        <city>Litchfield</city>
        <state>IL</state>
        <country>USA</country>
        <latitude>39.16635306</latitude>
        <longitude>-89.67489694</longitude>
    </airport>
    <airport name="Lafayette Municipal">
        <iata>3M7</iata>
        <city>Lafayette</city>
        <state>TN</state>
        <country>USA</country>
        <latitude>36.518375</latitude>
        <longitude>-86.05828083</longitude>
    </airport>
    <airport name="North Pickens ">
        <iata>3M8</iata>
        <city>Reform</city>
        <state>AL</state>
        <country>USA</country>
        <latitude>33.38900611</latitude>
        <longitude>-88.00557806</longitude>
    </airport>
    <airport name="Warren Municipal">
        <iata>3M9</iata>
        <city>Warren</city>
        <state>AR</state>
        <country>USA</country>
        <latitude>33.56044333</latitude>
        <longitude>-92.08538861</longitude>
    </airport>
    <airport name="Mt. Hawley Auxiliary">
        <iata>3MY</iata>
        <city>Peoria</city>
        <state>IL</state>
        <country>USA</country>
        <latitude>40.79525917</latitude>
        <longitude>-89.6134025</longitude>
    </airport>
    <airport name="Old Bridge">
        <iata>3N6</iata>
        <city>Old Bridge</city>
        <state>NJ</state>
        <country>USA</country>
        <latitude>40.32988667</latitude>
        <longitude>-74.34678694</longitude>
    </airport>
    <airport name="Mahnomen County ">
        <iata>3N8</iata>
        <city>Mahnomen</city>
        <state>MN</state>
        <country>USA</country>
        <latitude>47.25996056</latitude>
        <longitude>-95.92809778</longitude>
    </airport>
    <airport name="Northwood Municipal">
        <iata>3ND0</iata>
        <city>Northwood</city>
        <state>ND</state>
        <country>USA</country>
        <latitude>47.72423333</latitude>
        <longitude>-97.59042222</longitude>
    </airport>
    <airport name="Gustine">
        <iata>3O1</iata>
        <city>Gustine</city>
        <state>CA</state>
        <country>USA</country>
        <latitude>37.26271722</latitude>
        <longitude>-120.9632586</longitude>
    </airport>
    <airport name="Municipal">
        <iata>3O3</iata>
        <city>Purcell</city>
        <state>OK</state>
        <country>USA</country>
        <latitude>34.97979444</latitude>
        <longitude>-97.38586167</longitude>
    </airport>
    <airport name="Sayre Municipal">
        <iata>3O4</iata>
        <city>Sayre</city>
        <state>OK</state>
        <country>USA</country>
        <latitude>35.16755222</latitude>
        <longitude>-99.65787361</longitude>
    </airport>
    <airport name="Walters Municipal">
        <iata>3O5</iata>
        <city>Walters</city>
        <state>OK</state>
        <country>USA</country>
        <latitude>34.37258444</latitude>
        <longitude>-98.40588583</longitude>
    </airport>
    <airport name="Hollister Municipal">
        <iata>3O7</iata>
        <city>Hollister</city>
        <state>CA</state>
        <country>USA</country>
        <latitude>36.89334528</latitude>
        <longitude>-121.4102706</longitude>
    </airport>
    <airport name="Grand Lake Regional">
        <iata>3O9</iata>
        <city>Afton</city>
        <state>OK</state>
        <country>USA</country>
        <latitude>36.5775775</latitude>
        <longitude>-94.86190028</longitude>
    </airport>
    <airport name="Beeville Municipal">
        <iata>3R0</iata>
        <city>Beeville</city>
        <state>TX</state>
        <country>USA</country>
        <latitude>28.36455528</latitude>
        <longitude>-97.79208194</longitude>
    </airport>
    <airport name="Bay City Municipal">
        <iata>3R1</iata>
        <city>Bay City</city>
        <state>TX</state>
        <country>USA</country>
        <latitude>28.973255</latitude>
        <longitude>-95.86345528</longitude>
    </airport>
    <airport name="Le Gros Memorial">
        <iata>3R2</iata>
        <city>Crowley</city>
        <state>LA</state>
        <country>USA</country>
        <latitude>30.16173611</latitude>
        <longitude>-92.48396111</longitude>
    </airport>
    <airport name="Hart">
        <iata>3R4</iata>
        <city>Many</city>
        <state>LA</state>
        <country>USA</country>
        <latitude>31.54489667</latitude>
        <longitude>-93.48645306</longitude>
    </airport>
    <airport name="Jennings">
        <iata>3R7</iata>
        <city>Jennings</city>
        <state>LA</state>
        <country>USA</country>
        <latitude>30.24269333</latitude>
        <longitude>-92.67344778</longitude>
    </airport>
    <airport name="Illinois Valley">
        <iata>3S4</iata>
        <city>Illinois Valley (Cave Junction)</city>
        <state>OR</state>
        <country>USA</country>
        <latitude>42.10372417</latitude>
        <longitude>-123.6822911</longitude>
    </airport>
    <airport name="Grants Pass">
        <iata>3S8</iata>
        <city>Grants Pass</city>
        <state>OR</state>
        <country>USA</country>
        <latitude>42.51011722</latitude>
        <longitude>-123.3879894</longitude>
    </airport>
    <airport name="Condon State-Pauling ">
        <iata>3S9</iata>
        <city>Condon</city>
        <state>OR</state>
        <country>USA</country>
        <latitude>45.24651889</latitude>
        <longitude>-120.1664233</longitude>
    </airport>
    <airport name="Harry W Browne">
        <iata>3SG</iata>
        <city>Saginaw - H.Browne</city>
        <state>MI</state>
        <country>USA</country>
        <latitude>43.43341028</latitude>
        <longitude>-83.86245833</longitude>
    </airport>
    <airport name="St Charles">
        <iata>3SQ</iata>
        <city>St Charles</city>
        <state>MO</state>
        <country>USA</country>
        <latitude>38.84866139</latitude>
        <longitude>-90.50011833</longitude>
    </airport>
    <airport name="Boyceville Municipal ">
        <iata>3T3</iata>
        <city>Boyceville</city>
        <state>WI</state>
        <country>USA</country>
        <latitude>45.042185</latitude>
        <longitude>-92.0293475</longitude>
    </airport>
    <airport name="Fayette Regional Air Center">
        <iata>3T5</iata>
        <city>La Grange</city>
        <state>TX</state>
        <country>USA</country>
        <latitude>29.90930556</latitude>
        <longitude>-96.9505</longitude>
    </airport>
    <airport name="Jerry Tyler Memorial">
        <iata>3TR</iata>
        <city>Niles</city>
        <state>MI</state>
        <country>USA</country>
        <latitude>41.83590806</latitude>
        <longitude>-86.22517611</longitude>
    </airport>
    <airport name="Bowman ">
        <iata>3U3</iata>
        <city>Anaconda</city>
        <state>MT</state>
        <country>USA</country>
        <latitude>46.15313278</latitude>
        <longitude>-112.86784</longitude>
    </airport>
    <airport name="Benchmark">
        <iata>3U7</iata>
        <city>Benchmark</city>
        <state>MT</state>
        <country>USA</country>
        <latitude>47.48133194</latitude>
        <longitude>-112.8697678</longitude>
    </airport>
    <airport name="Big Sandy">
        <iata>3U8</iata>
        <city>Big Sandy</city>
        <state>MT</state>
        <country>USA</country>
        <latitude>48.16247972</latitude>
        <longitude>-110.1132631</longitude>
    </airport>
    <airport name="Fort Morgan Municipal">
        <iata>3V4</iata>
        <city>Fort Morgan</city>
        <state>CO</state>
        <country>USA</country>
        <latitude>40.33423194</latitude>
        <longitude>-103.8039508</longitude>
    </airport>
    <airport name="Shawano Municipal">
        <iata>3WO</iata>
        <city>Shawano</city>
        <state>WI</state>
        <country>USA</country>
        <latitude>44.78777778</latitude>
        <longitude>-88.56152444</longitude>
    </airport>
    <airport name="George L Scott Municipal">
        <iata>3Y2</iata>
        <city>West Union</city>
        <state>IA</state>
        <country>USA</country>
        <latitude>42.98508917</latitude>
        <longitude>-91.79060417</longitude>
    </airport>
    <airport name="Winterset Madison County">
        <iata>3Y3</iata>
        <city>Winterset</city>
        <state>IA</state>
        <country>USA</country>
        <latitude>41.36276778</latitude>
        <longitude>-94.02106194</longitude>
    </airport>
    <airport name="Haines SPB">
        <iata>3Z9</iata>
        <city>Haines</city>
        <state>AK</state>
        <country>USA</country>
        <latitude>59.23495111</latitude>
        <longitude>-135.4407181</longitude>
    </airport>
    <airport name="Perry-Foley">
        <iata>40J</iata>
        <city>Perry</city>
        <state>FL</state>
        <country>USA</country>
        <latitude>30.06927778</latitude>
        <longitude>-83.58058333</longitude>
    </airport>
    <airport name="Chester Cty-G O Carlson">
        <iata>40N</iata>
        <city>Coatesville</city>
        <state>PA</state>
        <country>USA</country>
        <latitude>39.97897222</latitude>
        <longitude>-75.86547222</longitude>
    </airport>
    <airport name="Manila">
        <iata>40U</iata>
        <city>Manila</city>
        <state>UT</state>
        <country>USA</country>
        <latitude>40.98607</latitude>
        <longitude>-109.6784811</longitude>
    </airport>
    <airport name="Manti-Ephraim">
        <iata>41U</iata>
        <city>Manti</city>
        <state>UT</state>
        <country>USA</country>
        <latitude>39.32912833</latitude>
        <longitude>-111.6146397</longitude>
    </airport>
    <airport name="Melbourne Municipal">
        <iata>42A</iata>
        <city>Melbourne</city>
        <state>AR</state>
        <country>USA</country>
        <latitude>36.07079222</latitude>
        <longitude>-91.82914667</longitude>
    </airport>
    <airport name="White Cloud">
        <iata>42C</iata>
        <city>White Cloud</city>
        <state>MI</state>
        <country>USA</country>
        <latitude>43.55974139</latitude>
        <longitude>-85.77421944</longitude>
    </airport>
    <airport name="Keystone Airpark">
        <iata>42J</iata>
        <city>Keystone Heights</city>
        <state>FL</state>
        <country>USA</country>
        <latitude>29.84475</latitude>
        <longitude>-82.04752778</longitude>
    </airport>
    <airport name="Poplar">
        <iata>42S</iata>
        <city>Poplar</city>
        <state>MT</state>
        <country>USA</country>
        <latitude>48.11595861</latitude>
        <longitude>-105.1821928</longitude>
    </airport>
    <airport name="Montgomery County">
        <iata>43A</iata>
        <city>Star</city>
        <state>NC</state>
        <country>USA</country>
        <latitude>35.38819528</latitude>
        <longitude>-79.79281667</longitude>
    </airport>
    <airport name="Dover/Foxcroft">
        <iata>44B</iata>
        <city>Dover-Foxcroft</city>
        <state>ME</state>
        <country>USA</country>
        <latitude>45.18338806</latitude>
        <longitude>-69.2328225</longitude>
    </airport>
    <airport name="Sky Acres">
        <iata>44N</iata>
        <city>Millbrook</city>
        <state>NY</state>
        <country>USA</country>
        <latitude>41.70742861</latitude>
        <longitude>-73.73802889</longitude>
    </airport>
    <airport name="Rockingham-Hamlet">
        <iata>45J</iata>
        <city>Rockingham</city>
        <state>NC</state>
        <country>USA</country>
        <latitude>34.89107083</latitude>
        <longitude>-79.75905806</longitude>
    </airport>
    <airport name="North Bass Island">
        <iata>45OH</iata>
        <city>North Bass Island</city>
        <state>OH</state>
        <country>USA</country>
        <latitude>41.71932528</latitude>
        <longitude>-82.82196917</longitude>
    </airport>
    <airport name="Kountz - Hawthorne ">
        <iata>45R</iata>
        <city>Kountze/Silsbee</city>
        <state>TX</state>
        <country>USA</country>
        <latitude>30.33633806</latitude>
        <longitude>-94.25754361</longitude>
    </airport>
    <airport name="Blairsville">
        <iata>46A</iata>
        <city>Blairsville</city>
        <state>GA</state>
        <country>USA</country>
        <latitude>34.85508722</latitude>
        <longitude>-83.996855</longitude>
    </airport>
    <airport name="Carrington Municipal">
        <iata>46D</iata>
        <city>Carrington</city>
        <state>ND</state>
        <country>USA</country>
        <latitude>47.45111111</latitude>
        <longitude>-99.15111111</longitude>
    </airport>
    <airport name="Sky Park">
        <iata>46N</iata>
        <city>Red Hook</city>
        <state>NY</state>
        <country>USA</country>
        <latitude>41.98458333</latitude>
        <longitude>-73.83596556</longitude>
    </airport>
    <airport name="Cherokee County">
        <iata>47A</iata>
        <city>Canton</city>
        <state>GA</state>
        <country>USA</country>
        <latitude>34.31058333</latitude>
        <longitude>-84.42391667</longitude>
    </airport>
    <airport name="Cheraw Municipal">
        <iata>47J</iata>
        <city>Cheraw</city>
        <state>SC</state>
        <country>USA</country>
        <latitude>34.71258333</latitude>
        <longitude>-79.95794444</longitude>
    </airport>
    <airport name="Central Jersey Regional">
        <iata>47N</iata>
        <city>Manville</city>
        <state>NJ</state>
        <country>USA</country>
        <latitude>40.52438417</latitude>
        <longitude>-74.59839194</longitude>
    </airport>
